City,Cloudiness,Country,Date,Humidity,Lat,Lng,Max Temp,Wind Speed
Magadan,100,RU,1559273565,97,59.56,150.8,39.81,2.21
Bluff,100,AU,1559273565,26,-23.58,149.07,67.89,14.65
Wamba,77,CD,1559273565,94,2.14,27.99,66.45,1.45
Kautokeino,21,NO,1559273565,88,69.01,23.04,38.55,8.7
Busselton,79,AU,1559273565,30,-33.64,115.35,75,10.8
Bougouni,100,ML,1559273566,65,11.42,-7.49,84.09,8.63
Hanzhong,95,CN,1559273620,50,33.08,107.03,76.35,1.54
Chuy,78,UY,1559273586,79,-33.69,-53.46,58.35,13.58
Te Kauwhata,73,NZ,1559273586,82,-37.4,175.15,60.8,16.11
Tuatapere,98,NZ,1559273457,83,-46.13,167.69,46.99,15.97
Ravar,1,IR,1559273586,40,31.27,56.81,70.23,5.32
Punta Arenas,75,CL,1559273586,92,-53.16,-70.91,28.4,4.7
Mayo,75,CA,1559273120,32,63.59,-135.9,68,6.93
Tiksi,66,RU,1559273586,95,71.64,128.87,33.15,6.2
Torbay,90,CA,1559272897,93,47.66,-52.73,35.01,3.36
Ushuaia,0,AR,1559273587,80,-54.81,-68.31,33.8,6.93
Rikitea,88,PF,1559273587,85,-23.12,-134.97,77.43,14.47
Barrow,99,AR,1559273587,78,-38.31,-60.23,42.51,5.21
Pochutla,100,MX,1559273239,96,15.74,-96.47,73.99,0.31
Talnakh,75,RU,1559273524,82,69.49,88.39,33.8,13.42
Airai,80,TL,1559273588,55,-8.93,125.41,85.71,5.97
Puerto Ayora,1,EC,1559273588,91,-0.74,-90.35,72,6.62
Kapaa,75,US,1559273428,69,22.08,-159.32,82.4,9.17
Tuktoyaktuk,20,CA,1559273588,64,69.44,-133.03,39.2,19.46
Arraial do Cabo,61,BR,1559273588,79,-22.97,-42.02,75.27,11.21
Okha,92,RU,1559273588,81,53.59,142.95,43.05,15.93
Staroutkinsk,68,RU,1559273589,80,57.23,59.33,66.81,9.06
Guerrero Negro,0,MX,1559273590,86,27.97,-114.04,63.57,13.76
Hilo,75,US,1559273590,61,19.71,-155.08,80.6,9.17
Santa Vitoria do Palmar,33,BR,1559273590,82,-33.52,-53.37,55.65,6.93
Monroe,1,US,1559273590,93,41.91,-83.4,64.99,4.7
Saint George,40,GR,1559273591,76,39.45,22.34,62.6,4.54
Yellowknife,20,CA,1559273591,65,62.45,-114.38,41,8.05
Calabozo,100,VE,1559273592,91,8.92,-67.43,76.53,4.03
Thompson,75,CA,1559273601,82,55.74,-97.86,39.2,2.24
Liverpool,20,GB,1559273397,77,53.41,-2.98,60.01,6.93
Taseyevo,100,RU,1559273601,74,57.22,94.9,53.85,12.08
Coihaique,90,CL,1559273465,100,-45.58,-72.07,35.6,3.22
Shevchenkove,0,UA,1559273602,72,49.7,37.18,68,4.47
Vaini,40,IN,1559273611,78,15.34,74.49,77,4.7
General Roca,40,AR,1559273611,93,-39.03,-67.58,44.6,5.1
Mataura,93,NZ,1559273612,83,-46.19,168.86,46.99,3.15
Nanortalik,7,GL,1559273612,76,60.14,-45.24,36.93,1.57
Sechura,45,PE,1559273612,87,-5.56,-80.82,67.53,11.9
Jamestown,50,AU,1559273612,72,-33.21,138.6,55.83,7.74
Hobart,75,AU,1559273429,62,-42.88,147.33,57.99,12.75
Saldanha,0,PT,1559273680,60,41.42,-6.55,61.59,5.23
Batagay-Alyta,73,RU,1559273680,75,67.8,130.41,41.79,3.91
Pevek,0,RU,1559273680,83,69.7,170.27,35.67,9.33
Jurm,71,AF,1559273680,50,36.86,70.83,61.77,1.32
Kaitangata,100,NZ,1559273680,70,-46.28,169.85,46.99,1.99
Ukiah,0,US,1559273680,76,39.15,-123.21,68,2.24
Cape Town,0,ZA,1559273623,100,-33.93,18.42,57,4.7
Victoria,75,BN,1559273401,70,5.28,115.24,89.6,3.36
Bocaiuva,0,BR,1559273681,64,-17.12,-43.81,71.6,5.66
Aklavik,20,CA,1559273681,40,68.22,-135.01,51.8,11.41
Albany,90,US,1559273580,88,42.65,-73.75,64.99,8.05
Butaritari,100,KI,1559273682,78,3.07,172.79,83.55,14
Sile,20,US,1559273682,54,35.56,-106.37,64.4,10.29
Zhigansk,0,RU,1559273238,41,66.77,123.37,52.77,17.47
Madimba,75,CM,1559273682,100,4.42,9.93,77,3.36
Port Elizabeth,75,US,1559273682,94,39.31,-74.98,72,4.7
Ahipara,0,NZ,1559273683,100,-35.17,173.16,62.01,30.29
Luganville,20,VU,1559273458,69,-15.51,167.18,82.4,11.41
Ola,100,RU,1559273683,93,59.58,151.3,40.89,4.36
Rudnogorsk,90,RU,1559273683,35,57.27,103.75,72.75,6.22
Avarua,2,CK,1559273684,78,-21.21,-159.78,75.2,13.87
Bredasdorp,0,ZA,1559273684,93,-34.53,20.04,48.2,4.7
Kruisfontein,100,ZA,1559273684,79,-34,24.73,58.35,2.51
Meulaboh,78,ID,1559273684,80,4.14,96.13,82.47,3.89
Tecoanapa,90,MX,1559273685,79,16.99,-99.26,84.2,9.17
Nantucket,90,US,1559273236,100,41.28,-70.1,55.99,10.29
Chernaya Kholunitsa,69,RU,1559273685,93,58.85,51.72,60.51,7.31
Lastoursville,100,GA,1559273685,93,-0.81,12.73,72.03,2.06
Comodoro Rivadavia,0,AR,1559273476,58,-45.87,-67.48,35.6,3.33
Ribeira Grande,48,PT,1559273493,91,38.52,-28.7,65.55,8.52
Port Alfred,100,ZA,1559273686,78,-33.59,26.89,54.93,1.92
Namibe,0,AO,1559273686,81,-15.19,12.15,66.63,14
Khatanga,100,RU,1559273686,62,71.98,102.47,53.49,13.11
Nikolskoye,0,RU,1559273686,53,59.7,30.79,51.01,6.71
Faanui,13,PF,1559273687,67,-16.48,-151.75,81.57,4.27
Katsuura,75,JP,1559273687,78,33.93,134.5,73.99,6.93
Mastic Beach,90,US,1559273687,100,40.77,-72.85,62.01,10.51
East London,0,ZA,1559273646,93,-33.02,27.91,55.4,2.24
Cayenne,100,GF,1559273687,94,4.94,-52.33,77,5.86
Hithadhoo,95,MV,1559273687,73,-0.6,73.08,84.27,17.81
Sambava,7,MG,1559273688,91,-14.27,50.17,65.01,2.64
Gizo,20,IL,1559273688,88,31.8,34.94,77,6.93
Marfino,90,RU,1559273688,100,56.07,37.56,63,8.95
Hermanus,0,ZA,1559273739,84,-34.42,19.24,55,1.01
Chilca,59,PE,1559273740,49,-13.22,-72.34,46.4,3.51
Qaanaaq,1,GL,1559273740,76,77.48,-69.36,22.71,2.33
Clyde River,1,CA,1559273740,82,70.47,-68.59,32,2.24
Shimoda,75,JP,1559273740,64,34.7,138.93,77,12.75
Bethel,75,US,1559273741,39,60.79,-161.76,64.4,18.34
Longyearbyen,75,NO,1559273741,74,78.22,15.63,33.8,19.46
Port Hedland,0,AU,1559273741,21,-20.31,118.58,80.6,21.92
Dikson,99,RU,1559273741,93,73.51,80.55,32.25,20.29
Mehamn,41,NO,1559273741,66,71.03,27.85,42.87,13.09
Navalmoral de la Mata,0,ES,1559273742,35,39.89,-5.54,65.37,6.13
Biankouma,100,CI,1559273742,95,7.74,-7.61,72.21,5.97
Atuona,6,PF,1559273742,76,-9.8,-139.03,83.19,17.25
Fort Nelson,40,CA,1559273742,37,58.81,-122.69,66.2,9.17
New Norfolk,75,AU,1559273742,62,-42.78,147.06,57.99,12.75
Petropavlovsk-Kamchatskiy,82,RU,1559273462,71,53.05,158.65,51.8,15.66
Castro,75,CL,1559273743,100,-42.48,-73.76,50,16.11
Jumla,0,NP,1559273743,23,29.28,82.18,67.71,1.01
Chokurdakh,93,RU,1559273743,68,70.62,147.9,42.87,14.34
Husavik,0,CA,1559273744,40,50.56,-96.99,66.99,3
San Cristobal,75,EC,1559273744,93,-0.39,-78.55,55.4,3.36
San Patricio,51,PY,1559273744,98,-26.98,-56.83,63.03,2.64
Ust-Kuyga,35,RU,1559273744,60,70,135.55,43.05,11.05
Guiratinga,84,BR,1559273745,55,-16.35,-53.76,77.97,2.86
Phan Thiet,100,VN,1559273745,51,10.93,108.1,90.57,5.17
Lichinga,0,MZ,1559273745,77,-13.3,35.25,60.51,4.54
Liberal,44,US,1559273523,63,37.04,-100.92,64.99,18.34
Paungde,100,MM,1559273746,58,18.49,95.51,89.31,6.78
Los Llanos de Aridane,1,ES,1559273746,77,28.66,-17.92,64.4,3.36
Pisco,90,PE,1559273746,88,-13.71,-76.2,64.4,3.36
Hasaki,75,JP,1559273746,69,35.73,140.83,75.99,16.11
Aliaga,75,PH,1559273747,59,15.5,120.85,89.6,4.7
Narsaq,0,GL,1559273747,19,60.91,-46.05,50,13.87
Kargil,0,PK,1559273747,26,34.56,76.13,43.05,3.33
Kawalu,92,ID,1559273748,88,-7.38,108.21,73.11,4.61
Atikokan,0,CA,1559273709,61,48.76,-91.62,57.45,4.25
Kailua,20,US,1559273591,61,21.39,-157.74,87.01,11.41
Tahara,75,JP,1559273749,77,34.64,137.18,81,5.82
Sitka,0,US,1559273525,54,37.17,-99.65,64.99,4.27
Fortuna,0,ES,1559273749,82,38.18,-1.13,61,3.36
Ust-Koksa,10,RU,1559273749,51,50.27,85.62,48.45,6.6
Bonavista,0,CA,1559273750,87,48.65,-53.11,30.99,5.01
Saint-Philippe,90,CA,1559273750,93,45.36,-73.48,62.01,11.41
Cherskiy,20,RU,1559273750,26,68.75,161.3,64.29,7.36
Pangnirtung,2,CA,1559273799,69,66.15,-65.72,41.97,1.61
Bambous Virieux,20,MU,1559273799,93,-20.34,57.76,70,9.17
Svetlogorsk,14,RU,1559273800,56,53.14,59.15,71.6,6.71
Camacha,40,PT,1559273800,100,33.08,-16.33,69.01,9.17
Karratha,2,AU,1559273800,18,-20.74,116.85,80.85,21.63
Savalou,100,BJ,1559273800,82,7.93,1.98,77.43,6.6
Lebu,20,ET,1559273800,93,8.96,38.73,55.4,2.24
Wattegama,100,LK,1559273801,72,7.35,80.68,80.85,6.6
Luderitz,0,NA,1559273801,93,-26.65,15.16,53.6,6.93
Batemans Bay,50,AU,1559273801,48,-35.71,150.18,68,1.01
Portland,75,US,1559273741,50,45.52,-122.67,75.2,5.82
Quatre Cocos,20,MU,1559273801,93,-20.21,57.76,70,9.17
Mataram,92,ID,1559273802,73,-5.32,105.06,83.73,1.7
Souillac,0,FR,1559273802,93,45.6,-0.6,55.99,5.57
Lavrentiya,85,RU,1559273802,66,65.58,-170.99,44.13,9.55
Severnoye,0,RU,1559273802,82,54.09,52.54,68.79,5.99
Tasiilaq,1,GL,1559273802,82,65.61,-37.64,32,10.29
Puteyets,99,RU,1559273802,83,65.17,57.09,39.63,1.66
Rio Grande City,1,US,1559273802,78,26.38,-98.82,84.2,10.29
Necochea,100,AR,1559273803,61,-38.55,-58.74,39.99,6.33
Grand Gaube,20,MU,1559273803,93,-20.01,57.66,70,9.17
Bulawayo,0,ZW,1559273803,85,-20.16,28.59,48.81,6.46
Klaksvik,67,FO,1559273803,80,62.23,-6.59,39.2,2.24
Vao,100,EE,1559273804,53,59.1,26.19,50.43,15.68
Kodiak,1,US,1559273804,68,39.95,-94.76,64.99,6.13
Garoua,65,CM,1559273804,64,9.31,13.39,81.57,4.45
Bundaberg,88,AU,1559273537,23,-24.87,152.35,70,8.05
Upernavik,41,GL,1559273804,87,72.79,-56.15,32.79,7.29
Anadyr,0,RU,1559273804,65,64.73,177.51,44.6,15.66
Ponta do Sol,100,BR,1559273805,91,-20.63,-46,65.37,3.67
Roebourne,3,AU,1559273805,19,-20.77,117.15,79.77,21.18
Lagoa,0,PT,1559273805,40,37.14,-8.45,69.8,10.29
Polyarnyy,0,RU,1559273808,46,69.2,33.45,50,8.95
Severo-Kurilsk,100,RU,1559273808,92,50.68,156.12,38.91,39.1
Bikramganj,0,IN,1559273809,54,25.22,84.27,91.11,15.41
Henties Bay,69,NA,1559273809,95,-22.12,14.28,57,7.45
Broken Hill,90,AU,1559273809,71,-31.97,141.45,53.6,14.99
Olavarria,81,AR,1559273809,93,-36.89,-60.32,41.97,5.66
Muroto,90,JP,1559273810,64,33.37,134.14,73.4,2.24
Sucua,100,EC,1559273810,97,-2.46,-78.17,45.03,3.2
Geraldton,90,CA,1559273810,45,49.72,-86.95,46.4,3.56
Carauari,100,BR,1559273810,72,-4.88,-66.9,80.49,0.94
Agirish,100,RU,1559273810,66,61.92,63.02,49.35,4.7
Banda Aceh,100,ID,1559273811,70,5.56,95.32,84.63,4.12
Sao Filipe,4,CV,1559273859,88,14.9,-24.5,73.65,16.08
San Carlos de Bariloche,75,AR,1559273860,93,-41.13,-71.31,35.6,5.82
Tessaoua,99,NE,1559273860,44,13.76,7.99,88.59,10.11
Aswan,0,EG,1559273860,17,24.09,32.9,89.6,9.17
Cabo San Lucas,5,MX,1559273698,77,22.89,-109.91,75.99,12.75
Songkhla,75,TH,1559273860,83,7.2,100.6,82.4,6.93
Victor Harbor,75,AU,1559273861,77,-35.55,138.62,61,12.75
Buraydah,0,SA,1559273861,29,26.33,43.97,78.8,5.82
Sorland,1,NO,1559273861,75,67.67,12.69,43.77,11.59
Tommot,100,RU,1559273861,45,58.97,126.27,57.09,8.59
Boende,100,CD,1559273861,95,-0.28,20.88,71.13,1.43
Sompeta,74,IN,1559273861,63,18.93,84.6,90.57,13.65
Honiara,20,SB,1559273862,62,-9.43,159.96,89.6,18.34
Juneau,75,US,1559273751,32,58.3,-134.42,69.8,4.7
Dong Hoi,99,VN,1559273706,52,17.48,106.6,90.75,4.43
Terrak,100,NO,1559273862,80,65.09,12.37,41,8.05
Motygino,100,RU,1559273862,87,58.18,94.69,48.81,13.22
Carnarvon,91,ZA,1559273850,32,-30.97,22.13,56.91,2.82
Waddan,100,LY,1559273862,38,29.16,16.14,79.95,6.8
Kosa,65,RU,1559273863,89,59.94,54.99,62.31,10.54
Mecca,100,SA,1559273709,27,21.43,39.83,93.27,3.53
Vardo,1,US,1559273863,83,39.62,-77.74,71.01,12.75
Ayagoz,12,KZ,1559273863,48,47.96,80.43,61.77,15.86
Najran,0,SA,1559273863,38,17.54,44.22,77,1.66
Esperance,20,TT,1559273865,78,10.24,-61.45,78.8,7.92
Jiwani,0,PK,1559273865,70,25.05,61.74,88.23,8.61
Erzin,0,TR,1559273865,60,36.95,36.2,75.99,10.29
Caravelas,0,BR,1559273865,87,-17.73,-39.27,74.37,2.98
Nanga Eboko,100,CM,1559273865,99,4.68,12.37,69.51,3.58
Imbituba,75,BR,1559273866,100,-28.24,-48.67,66.2,2.44
Vila Franca do Campo,75,PT,1559273866,100,37.72,-25.43,64.4,3.36
Kalamazoo,1,US,1559273629,87,42.29,-85.59,62.6,2.01
Faya,0,SA,1559273866,55,18.39,42.45,64.4,1.23
Salinas,1,US,1559273866,82,36.67,-121.66,61,10.29
Qaqortoq,0,GL,1559273681,19,60.72,-46.03,50,13.87
Salalah,75,OM,1559273867,74,17.01,54.1,86,2.24
Kahului,20,US,1559273767,54,20.89,-156.47,82.4,17.22
Renqiu,0,CN,1559273867,8,38.71,116.1,83.19,5.88
Behshahr,0,IR,1559273867,82,36.69,53.54,68,6.58
Muros,0,ES,1559273867,56,42.77,-9.06,69.8,5.82
Mar del Plata,100,AR,1559273867,75,-46.43,-67.52,38.55,4.43
Trincomalee,73,LK,1559273867,66,8.58,81.23,86.25,10
Payson,90,US,1559273759,76,40.04,-111.73,60.8,6.93
Leningradskiy,61,RU,1559273868,97,69.38,178.42,32.79,5.3
Gewane,85,ET,1559273868,48,10.16,40.66,83.19,6.85
Haines Junction,76,CA,1559273919,37,60.75,-137.51,59.43,12.5
Pacific Grove,75,US,1559273919,87,36.62,-121.92,60.01,9.17
Ewa Beach,75,US,1559273638,48,21.32,-158.01,87.01,8.05
Kamaishi,75,JP,1559273920,56,39.28,141.86,73.4,8.05
Vestmannaeyjar,0,IS,1559273920,66,63.44,-20.27,45.75,12.1
Coracao de Jesus,0,BR,1559273920,64,-16.69,-44.37,71.6,6.69
Nagaur,0,IN,1559273920,35,27.2,73.74,96.51,18.25
Avon,1,US,1559273798,93,41.45,-82.04,64,7.81
Taoudenni,0,ML,1559273921,10,22.68,-3.98,94.35,10.67
Tagusao,34,PH,1559273921,59,9.19,117.81,88.77,2.35
Beringovskiy,0,RU,1559273921,52,63.05,179.32,49.17,5.39
Bilibino,0,RU,1559273921,81,68.06,166.44,44.85,3.24
Waingapu,79,ID,1559273921,57,-9.65,120.26,83.73,15.21
Ilulissat,9,GL,1559273850,65,69.22,-51.1,41,3.36
Georgetown,40,GY,1559273913,100,6.8,-58.16,77,4.7
Thinadhoo,100,MV,1559273922,81,0.53,72.93,82.47,16.42
Pokrovskoye,88,RU,1559273922,68,47.41,38.9,66.27,7.65
The Valley,20,AI,1559273904,78,18.22,-63.06,81,11.41
Iracoubo,100,GF,1559273922,87,5.48,-53.21,78.15,6.42
Dunedin,90,NZ,1559273922,73,-45.87,170.5,48.99,3
Broome,54,GB,1559273922,93,52.47,1.45,57,9.17
Uruana,39,BR,1559273923,64,-15.5,-49.69,71.13,2.91
Beian,75,NO,1559273923,81,63.66,9.57,43,19.46
Dukat,93,RS,1559273923,82,42.44,22.31,55.99,1.99
Kabanjahe,75,ID,1559273923,94,3.1,98.49,78.8,3.36
Alice Springs,0,AU,1559273815,30,-23.7,133.88,55.4,17.22
Yatou,75,CM,1559273923,100,3.63,9.81,77,3.36
Lom Sak,40,TH,1559273924,70,16.78,101.24,86,8.05
Touros,61,BR,1559273859,77,-5.2,-35.46,82.65,20.49
Mahebourg,20,MU,1559273861,93,-20.41,57.7,70,9.17
Dingle,61,PH,1559273924,43,11,122.67,94.89,9.69
Kieta,76,PG,1559273924,74,-6.22,155.63,84.45,12.12
Vila Velha,75,BR,1559273924,78,-3.71,-38.6,80.6,10.29
Kumluca,100,TR,1559273925,37,36.37,30.29,60.33,5.79
Batouri,100,CM,1559273925,98,4.44,14.36,69.15,3.98
Pocone,59,BR,1559273661,63,-16.26,-56.62,73.83,3.09
Cururupu,100,BR,1559273925,99,-1.82,-44.87,73.83,1.72
Kangaatsiaq,28,GL,1559273925,78,68.31,-53.46,35.85,9.06
High Level,1,CA,1559273925,38,58.52,-117.13,59,2.24
Rio Casca,100,BR,1559273818,93,-20.23,-42.65,63.39,3.42
Kerouane,0,GN,1559273926,46,12.23,-12.34,89.6,11.41
Selty,63,RU,1559273926,79,57.31,52.14,67.53,8.03
Cairns,75,AU,1559273869,73,-16.92,145.77,77,8.05
Isangel,40,VU,1559273643,61,-19.55,169.27,80.6,11.41
Lourdes,75,SV,1559273914,94,13.73,-89.37,77,8.05
Alugan,85,PH,1559273926,57,12.22,125.48,91.65,7.83
Auki,100,NG,1559273979,59,12.18,6.51,82.29,10.18
Novichikha,94,RU,1559273980,47,52.2,81.39,58.17,9.73
Provideniya,90,RU,1559273980,65,64.42,-173.23,44.6,2.24
Sao Gabriel da Cachoeira,100,BR,1559273980,97,-0.13,-67.09,73.83,3.02
Poum,12,MK,1559273980,85,41.28,20.71,45.93,2.86
Sonoita,1,US,1559273980,17,31.68,-110.66,84.2,11.41
Ambunti,29,PG,1559273980,46,-4.22,142.82,93.09,3.24
Saucillo,0,MX,1559273981,7,28.03,-105.29,81.75,7.23
Saskylakh,70,RU,1559273977,99,71.97,114.09,35.85,15.48
Ulladulla,0,AU,1559273981,36,-35.36,150.48,66.99,10.29
Manado,20,ID,1559273981,52,1.49,124.85,91.4,5.82
Flin Flon,39,CA,1559273981,57,54.77,-101.88,44.85,5.01
Ketchikan,1,US,1559273981,52,55.34,-131.65,64.4,12.75
Agropoli,2,IT,1559273982,41,40.35,15,59,1.99
Beidao,100,CN,1559273982,37,34.57,105.89,66.81,4.9
Fairbanks,40,US,1559273982,27,64.84,-147.72,73.4,8.05
Levelland,75,US,1559273982,60,33.59,-102.38,71.01,8.05
Miri,100,NG,1559273984,69,10.31,9.75,73.29,2.42
Viedma,100,AR,1559273984,68,-40.81,-62.99,47.37,10.4
Rochegda,0,RU,1559273984,50,62.67,43.41,52.05,3.04
Coquimbo,0,CL,1559273778,87,-29.95,-71.34,57.2,1.12
Basco,1,US,1559273985,93,40.33,-91.2,64.99,4.32
Pitimbu,40,BR,1559273985,83,-7.47,-34.81,75.2,4.7
Ucluelet,0,CA,1559273949,92,48.94,-125.55,69.01,1.01
Alofi,40,NU,1559273985,74,-19.06,-169.92,78.8,8.05
Cidreira,100,BR,1559273861,82,-30.17,-50.22,61.77,18.99
Lazurne,26,UA,1559273985,81,46.77,34.99,65.73,4.76
Port Lincoln,100,AU,1559273986,75,-34.72,135.86,57.09,7
Iglesias,0,ES,1559273986,87,42.3,-3.99,57,1.12
Brae,58,GB,1559273986,75,60.4,-1.35,44.6,9.17
Chavantes,32,BR,1559273696,94,-23.04,-49.71,67.71,3.4
Porto Belo,75,BR,1559273986,100,-27.15,-48.54,69.01,5.82
Victoria,75,BN,1559273775,70,5.28,115.24,89.6,3.36
Singaraja,47,ID,1559273986,58,-8.11,115.08,85.71,1.7
Norman Wells,75,CA,1559273987,66,65.28,-126.83,51.8,3.36
Saint-Pierre,20,FR,1559273987,100,48.95,4.24,53.01,3.36
Kavieng,82,PG,1559273988,74,-2.57,150.8,84.99,10.8
Lipin Bor,0,RU,1559273988,62,60.26,37.97,48.27,3.22
Seoul,40,KR,1559273852,38,37.57,126.98,75.2,4.7
Adet,97,ET,1559273988,81,11.26,37.49,61.23,5.99
Tokur,100,RU,1559273988,45,53.13,132.9,58.71,3.87
Nouadhibou,40,MR,1559273988,88,20.93,-17.03,64.4,14.99
Pokhara,0,NP,1559273989,29,28.21,83.99,67.89,5.01
Kargasok,75,RU,1559274039,55,59.06,80.87,48.27,8.3
Helong,31,CN,1559274040,73,25.94,116.13,82.11,3.44
Champerico,90,MX,1559274040,83,16.38,-93.6,75.2,3.74
Udachnyy,20,RU,1559274040,33,66.42,112.4,59,8.95
Clarence Town,0,AU,1559274040,39,-32.59,151.78,66.99,18.34
Noumea,0,NC,1559274040,47,-22.28,166.46,78.8,8.05
Osmena,86,PH,1559274040,69,12.17,124.59,88.95,6.64
Ginda,0,IN,1559274041,31,30.69,78.49,89.6,3.36
Loiza,40,PR,1559274041,88,18.43,-65.88,79,3.36
Humaita,0,AR,1559274041,87,-24.93,-65.37,57.2,2.24
Khani,0,GE,1559274041,93,41.96,42.96,60.8,2.24
Yarkovo,40,RU,1559274041,62,54.81,82.6,55.4,15.66
Ostrovnoy,14,RU,1559274041,50,68.05,39.51,50.79,13.44
Vanimo,57,PG,1559274042,73,-2.67,141.3,85.17,11.27
Hirekerur,100,IN,1559274042,74,14.47,75.38,79.23,6.4
Charlestown,90,US,1559274042,100,41.38,-71.64,57.2,3.36
Sola,20,NO,1559274042,75,58.89,5.65,46.99,8.05
Northam,99,GB,1559274042,94,51.04,-4.21,59,7
Kenai,90,US,1559273908,66,60.55,-151.26,55.4,9.17
Saint-Francois,90,FR,1559274043,100,46.42,3.91,44.6,2.24
Along,53,IN,1559274043,48,28.17,94.8,67.89,3.31
Adrar,6,DZ,1559274043,21,27.87,-0.29,84.2,14.99
Owensboro,1,US,1559274043,100,37.77,-87.11,71.01,4.7
Abha,0,SA,1559274043,55,18.22,42.5,64.4,7.36
Saint-Georges,100,CA,1559274044,73,46.12,-70.67,57.99,13.04
Gat,20,SN,1559274032,83,14.69,-16.54,71.6,6.93
Joshimath,0,IN,1559274050,9,30.57,79.57,68.07,3.76
Bembibre,0,ES,1559274050,76,42.62,-6.42,60.01,6.93
Yashan,100,CN,1559274050,62,30.81,118.02,76.53,6.96
Richards Bay,0,ZA,1559274050,78,-28.77,32.06,65.37,7.02
Rognan,75,NO,1559274050,75,67.1,15.4,45,14.99
Syracuse,75,US,1559273936,100,43.05,-76.15,64,4.7
Grindavik,0,IS,1559274031,70,63.84,-22.43,42.8,2.24
Huaiyin,0,CN,1559274051,35,33.59,119.02,81.75,5.57
Ahuimanu,20,US,1559274051,61,21.44,-157.84,86,11.41
Karanpura,0,IN,1559274051,15,29.1,75.09,104.07,19.37
Mopti,0,ML,1559274051,49,14.49,-4.19,89.6,6.93
Ngunguru,70,NZ,1559274051,76,-35.62,174.5,61,15.01
Sur,2,OM,1559274052,30,22.57,59.53,97.41,13.73
Kimbe,41,PG,1559274055,74,-5.56,150.15,86.07,4.76
Yulara,0,AU,1559274055,30,-25.24,130.99,57.2,19.46
Sokoni,0,CD,1559274055,85,-12.89,28.78,51.69,4.07
Kaeo,49,NZ,1559274055,76,-35.1,173.78,62.01,15.01
Mahibadhoo,49,MV,1559273975,72,3.78,72.97,84.27,10.16
Makakilo City,75,US,1559273908,48,21.35,-158.09,87.01,8.05
Saint-Augustin,0,FR,1559274099,87,44.83,-0.61,55.4,2.24
Ghanzi,0,BW,1559274100,32,-21.7,21.65,55.65,6.22
Taonan,0,CN,1559274100,64,45.34,122.78,72,1.01
Robstown,75,US,1559274100,94,27.79,-97.67,82.99,8.05
Byron Bay,28,AU,1559273828,30,-28.65,153.62,70,5.82
Hidalgo,1,US,1559274100,78,26.1,-98.26,84.2,10.29
Verkhoyansk,0,RU,1559274101,44,67.55,133.39,56.37,16.2
Paracuru,75,BR,1559274101,78,-3.41,-39.03,80.6,10.29
Amapa,90,HN,1559274101,88,15.09,-87.97,77,5.82
Ipixuna,0,BR,1559274101,88,-1.76,-48.8,77,2.42
Anloga,40,GH,1559274102,88,5.79,0.9,80.6,9.17
Mujiayingzi,0,CN,1559274102,28,42.12,118.78,62.67,14.32
Te Anau,91,NZ,1559274102,78,-45.41,167.72,38.91,1.36
Mayor Pablo Lagerenza,58,PY,1559274102,69,-19.93,-60.77,76.89,8.16
Atambua,81,ID,1559274102,67,-9.11,124.89,85.17,12.44
Maryborough,98,AU,1559274102,17,-25.54,152.7,68.25,4.88
Zhaotong,58,CN,1559274103,54,27.34,103.71,59.25,4.47
Consett,75,GB,1559274103,100,54.85,-1.83,59,6.93
Hun,13,BE,1559274103,81,50.34,4.87,55.4,3.36
Healdsburg,1,US,1559274104,100,38.61,-122.87,68,4.7
Dwarka,20,IN,1559274104,21,28.58,77.04,98.01,8.05
Katangli,64,RU,1559274104,57,51.71,143.23,61.23,16.33
Xunchang,9,CN,1559274104,36,28.45,104.71,86.07,0.63
Warmbad,0,DE,1559274105,66,50.67,13.08,60.01,3.36
Semnan,3,IR,1559274105,56,35.58,53.39,57.99,4.43
Mount Gambier,90,AU,1559274105,82,-37.83,140.78,55.4,11.41
Saint Anthony,20,US,1559274105,34,43.97,-111.68,69.8,4.88
Ulaangom,90,MN,1559273975,19,49.98,92.07,71.67,7.16
Noshiro,75,JP,1559274106,43,40.21,140.05,73.4,13.87
Tefe,99,BR,1559274106,96,-3.35,-64.71,74.73,1.54
Grand Forks,20,US,1559273826,31,47.91,-97.06,78.8,11.41
Sydney,20,AU,1559273991,37,-33.85,151.22,69.01,12.75
Troitsko-Pechorsk,100,RU,1559274106,92,62.71,56.19,49.53,10.42
Razdolinsk,100,RU,1559274106,87,58.42,94.62,48.81,13.22
Churapcha,86,RU,1559274107,48,62,132.43,59.61,11.16
Atherton,99,GB,1559274107,93,53.52,-2.49,60.01,3.36
Yendi,92,GH,1559274107,75,9.45,0,80.49,10.33
Takaungu,31,KE,1559274107,95,-3.68,39.86,70.77,7.05
Mantua,0,IT,1559274107,87,45.16,10.79,57.99,6.93
Tura,94,IN,1559274108,71,25.52,90.21,83.01,7.2
Digras,100,IN,1559274080,23,20.1,77.72,94.89,12.21
Kirakira,46,SB,1559274108,71,-10.46,161.92,84.63,9.08
Lakes Entrance,100,AU,1559274159,72,-37.88,147.99,59,4
Codrington,0,AU,1559274160,18,-28.95,153.24,66.2,6.93
Maputo,0,MZ,1559274160,87,-25.97,32.57,57.2,8.05
Eureka,90,US,1559273864,93,40.8,-124.16,55,4.7
Zabol,0,IR,1559274160,47,31.03,61.49,77,26.4
Belmonte,0,PT,1559274160,45,40.36,-7.35,64,1.99
Bandar-e Lengeh,0,IR,1559274160,94,26.56,54.88,84.2,4.7
Lasa,49,CY,1559274032,82,34.92,32.53,73.4,9.17
Lhokseumawe,100,ID,1559274161,60,5.18,97.15,85.17,4
Glenwood Springs,1,US,1559274161,69,39.55,-107.33,59,5.82
Lata,0,IN,1559274161,34,30.78,78.62,45.57,1.83
Puerto Ayacucho,40,CO,1559274161,94,5.66,-67.63,77,4.34
Avera,1,US,1559273910,51,33.19,-82.53,84.2,5.5
Naze,100,NG,1559274162,97,5.43,7.07,72.75,3.69
Yarada,40,IN,1559274162,70,17.65,83.27,91.4,11.41
Kavaratti,40,IN,1559274091,74,10.57,72.64,86,5.82
Shubarkuduk,0,KZ,1559274162,48,49.15,56.49,73.29,6.44
Igarka,65,RU,1559274162,77,67.47,86.57,37.83,4.43
Araouane,0,ML,1559274162,15,18.9,-3.53,93.81,7.61
Ormara,0,PK,1559273850,24,25.21,64.64,97.77,7.92
Padang,20,ID,1559274154,74,-0.92,100.36,86,4.7
Washougal,1,US,1559274163,53,45.58,-122.35,75.2,4.7
Aksarka,89,RU,1559273970,68,66.56,67.8,40.35,4.72
Sai Buri,20,TH,1559274163,66,6.7,101.62,89.6,5.82
Fort Morgan,56,US,1559274013,44,40.25,-103.8,62.6,4.38
Deputatskiy,88,RU,1559273860,76,69.3,139.9,42.69,6.44
Komsomolets,0,RU,1559274163,79,52.77,41.29,66.09,6.22
Birjand,75,IR,1559274164,59,32.86,59.22,62.6,11.41
San Rafael,0,AR,1559274164,84,-34.61,-68.33,45.21,1.03
Vagur,100,FO,1559274167,72,61.47,-6.81,42.69,6.4
Ankazoabo,1,MG,1559274167,96,-22.29,44.51,57.99,1.43
Dulce Nombre de Culmi,100,HN,1559274167,94,15.08,-85.56,68.25,1.41
Alvaraes,98,BR,1559274167,96,-3.22,-64.8,74.37,1.43
Korocha,0,RU,1559274168,77,50.81,37.2,66.2,4.47
Paamiut,1,GL,1559274168,89,61.99,-49.67,36.39,10.42
Oistins,75,BB,1559274149,78,13.07,-59.53,80.6,16.11
Presidente Epitacio,0,BR,1559273975,75,-21.76,-52.12,72.21,5.08
Bandarbeyla,100,SO,1559274159,84,9.49,50.81,74.55,10.76
Conde,93,BR,1559274168,96,-11.81,-37.61,72.75,2.3
Srednekolymsk,100,RU,1559273915,32,67.46,153.71,70.59,5.23
Belyy Yar,40,RU,1559273915,59,53.6,91.39,60.8,4.47
Somerset West,0,ZA,1559274169,100,-34.08,18.85,57,4.7
Calvinia,100,ZA,1559274169,59,-31.47,19.78,57.09,1.95
Barber,90,US,1559274169,77,39.71,-121.84,73.4,4.7
Lima,90,PE,1559273988,82,-12.06,-77.04,64.4,8.05
Vezirkopru,0,TR,1559274220,82,41.14,35.45,59,2.44
Belaya Gora,100,RU,1559274220,41,68.54,146.19,65.73,6.78
Tocopilla,0,CL,1559274220,79,-22.09,-70.2,65.55,18.07
San Quintin,30,PH,1559274220,49,17.54,120.52,92.91,7.07
Shelburne,1,CA,1559274035,67,44.08,-80.2,62.01,10.29
Iqaluit,20,CA,1559274092,100,63.75,-68.52,33.8,3.36
Mikulasovice,20,CZ,1559274220,71,50.97,14.36,57.2,4.7
Marrakesh,20,MA,1559274034,56,31.63,-7.99,73.4,3.36
Hualmay,97,PE,1559274221,92,-11.1,-77.61,62.49,18.79
Sao Joao Batista,100,BR,1559274221,95,-3.13,-58.38,74.55,1.48
Shambu,88,ET,1559274221,91,9.57,37.1,55.47,3.29
Savelugu,79,GH,1559274163,74,9.63,-0.83,81.03,13.85
Sao Raimundo das Mangabeiras,5,BR,1559274222,83,-7.02,-45.48,75.27,3.58
Halifax,90,CA,1559274202,100,44.65,-63.58,45,11.41
Miracema do Tocantins,4,BR,1559274222,70,-9.56,-48.4,77.25,1.41
Beloha,0,MG,1559274222,95,-25.17,45.06,62.85,5.46
Songea,86,TZ,1559274223,84,-10.68,35.65,62.13,4.54
Atasu,0,KZ,1559274223,45,48.68,71.64,65.91,8.57
Hearst,95,CA,1559274159,53,49.69,-83.67,41.43,0.4
Zacualpa,100,GT,1559274223,95,15.1,-90.9,57,1.61
Trenggalek,73,ID,1559274223,73,-8.05,111.71,78.33,11.3
Musafirkhana,0,IN,1559274223,46,26.37,81.8,95.61,15.82
Mattawa,1,CA,1559274224,57,46.32,-78.7,51.01,5.82
Kingaroy,30,AU,1559274224,17,-26.54,151.84,61,12.75
Wewak,30,PG,1559274224,64,-3.55,143.63,87.15,7.52
Quimper,90,FR,1559274224,100,48,-4.1,57.99,1.12
Flinders,0,AU,1559274224,36,-34.58,150.85,66.99,10.29
Nhamunda,99,BR,1559274225,98,-2.19,-56.71,73.65,1.43
Panjakent,44,UZ,1559274225,44,39.5,67.61,77,6.93
Lakatoro,75,VU,1559274225,70,-16.11,167.42,81.75,13.47
Berlevag,21,NO,1559273912,72,70.86,29.09,43.23,12.91
Zwedru,100,LR,1559274225,98,6.07,-8.13,71.85,4.45
Nishihara,75,JP,1559274193,64,35.74,139.53,78.01,10.29
Tiznit,0,MA,1559274225,88,29.7,-9.73,66.81,2.93
Goundi,100,TD,1559274030,77,9.36,17.37,79.59,9.4
Rosetta,93,EG,1559274226,83,31.4,30.42,73,1.01
Melfi,40,IT,1559274226,87,41,15.66,55.4,13.87
Hastings,78,NZ,1559273986,67,-39.64,176.84,58.53,6.29
Benguela,0,AO,1559274226,82,-12.58,13.4,72.93,11.74
Gamba,83,CN,1559274279,43,28.28,88.52,40.17,7.05
Namatanai,54,PG,1559274280,71,-3.66,152.44,84.27,7.45
Grimshaw,90,CA,1559274280,54,56.19,-117.61,55.4,5.82
Hofn,63,IS,1559274117,97,64.25,-15.21,25.95,0.63
Sorong,78,ID,1559274280,81,-0.86,131.25,84.99,0.96
Ginir,56,ET,1559274280,87,7.14,40.71,55.65,5.95
Guozhen,0,CN,1559274280,56,29.3,113.14,78.69,5.55
Libertador General San Martin,94,AR,1559274281,98,-23.81,-64.79,55.65,0.78
San Jose,29,PH,1559274228,39,15.79,120.99,95.97,8.63
Honjo,75,JP,1559274282,46,39.38,140.05,73.4,13.87
Luena,0,AO,1559273852,66,-11.78,19.91,55.83,2.48
Manga,100,BF,1559274282,58,11.67,-1.07,86.07,9.6
Drumheller,93,CA,1559274282,50,51.47,-112.7,60.01,3
Tiarei,40,PF,1559274283,74,-17.53,-149.33,82.4,6.93
Sept-Iles,90,CA,1559274283,93,50.2,-66.38,42.01,27.51
Mont-Dore,0,NC,1559274283,47,-22.23,166.53,78.8,8.05
Cap Malheureux,20,MU,1559274283,93,-19.98,57.61,70,9.17
Ushibuka,92,JP,1559274283,76,32.19,130.02,66.09,16.35
Palana,100,RU,1559274283,70,59.08,159.95,51.69,12.1
Pakaur,2,IN,1559274284,60,24.64,87.92,90.93,9.37
Marabba,77,SD,1559274284,38,12.35,32.18,90.57,9.37
San Andres,38,PH,1559274284,51,13.32,122.68,93.99,3.11
Huangpu,90,CN,1559274286,73,31.23,121.48,84,8.95
Urucara,100,BR,1559274287,95,-2.54,-57.76,74.55,0.25
Sakaiminato,90,JP,1559274287,72,35.55,133.23,64.99,4.7
Manta,1,RO,1559274287,82,45.1,24.1,54.75,5.7
Goderich,38,CA,1559274037,74,43.74,-81.71,54,8.99
Lompoc,90,US,1559273970,87,34.64,-120.46,62.01,8.05
Harper,1,US,1559274215,88,30.3,-99.24,73.99,3.36
